Division,Line,Station_Name,Route_1,Route_2,Route_3,Route_4,Route_5,Route_6,Route_7,Route_8,Route_9,Route_10,Route_11,ADA,ADA_Notes,Free_Crossover,Entrance_Type,Entry,Exit_Only,Entrance_Staffing,North_South_Street,East_West_Street,Corner,Latitude,Longitude
BMT,4th Avenue,25 St,R,,,,,,,,,,,FALSE,,FALSE,Stair,YES,,NONE,4th Ave,25th St,SW,40.660405999999995,-73.998086
BMT,4th Avenue,36 St,N,R,,,,,,,,,,FALSE,,TRUE,Stair,YES,,FULL,4th Ave,36th St,NW,40.654520500000004,-74.004306
BMT,4th Avenue,4 Av-9 St,F,G,R,,,,,,,,,FALSE,,TRUE,Stair,YES,,NONE,4th Ave,9th St,NW,40.6704625,-73.988629
BMT,4th Avenue,45 St,R,,,,,,,,,,,FALSE,,TRUE,Stair,YES,,FULL,4th Ave,45th St,NW,40.6494055,-74.0095305
BMT,4th Avenue,53 St,R,,,,,,,,,,,FALSE,,TRUE,Stair,YES,,FULL,4th Ave,53rd St,SW,40.645056,-74.014189
BMT,4th Avenue,59 St,N,R,,,,,,,,,,FALSE,,TRUE,Stair,YES,,NONE,4th Ave,60th St,SW,40.6411395,-74.01810950000001
BMT,4th Avenue,77 St,R,,,,,,,,,,,FALSE,,TRUE,Stair,YES,,FULL,4th Ave,77th St,NW,40.629862,-74.02559149999999
BMT,4th Avenue,86 St,R,,,,,,,,,,,FALSE,,TRUE,Stair,YES,,FULL,4th Ave,86th St,SW,40.6230405,-74.02837550000001
BMT,4th Avenue,95 St,R,,,,,,,,,,,FALSE,,TRUE,Stair,YES,,FULL,5th Ave,95th St,NE,40.61674,-74.0308935
BMT,4th Avenue,Atlantic Av-Pacific St,B,D,N,Q,R,2,3,4,5,,,TRUE,,TRUE,Stair,YES,,FULL,4th Ave,Pacific St,NW,40.6838665,-73.9786455
BMT,4th Avenue,Bay Ridge Av,R,,,,,,,,,,,FALSE,,TRUE,Stair,YES,,FULL,4th Ave,Bay Ridge Ave,NW,40.635118000000006,-74.0234465
BMT,4th Avenue,DeKalb Av,Q,R,,,,,,,,,,TRUE,,TRUE,Easement,YES,,NONE,Flatbush Ave,Fleet St,NW,40.690651,-73.98182349999999
BMT,4th Avenue,Prospect Av,R,,,,,,,,,,,FALSE,,FALSE,Stair,YES,,NONE,4th Ave,Prospect Ave,SE,40.665178499999996,-73.992987
BMT,4th Avenue,Union St,R,,,,,,,,,,,FALSE,,FALSE,Stair,YES,,NONE,4th Ave,Union St,SW,40.677139999999994,-73.983218
BMT,Astoria,30 Av,N,Q,,,,,,,,,,FALSE,,TRUE,Stair,YES,,FULL,31st St,30th Ave,SW,40.766875999999996,-73.92141050000001
BMT,Astoria,36 Av,N,Q,,,,,,,,,,FALSE,,TRUE,Stair,YES,,FULL,31st St,36th Ave,SW,40.7565875,-73.9298665
BMT,Astoria,39 Av,N,Q,,,,,,,,,,FALSE,,TRUE,Stair,YES,,FULL,31st St,39th Ave,SE,40.752696,-73.9329195
BMT,Astoria,Astoria Blvd,N,Q,,,,,,,,,,FALSE,,TRUE,Stair,YES,,FULL,31st St,Hoyt Ave South,SW,40.7705895,-73.9174565
BMT,Astoria,Astoria-Ditmars Blvd,N,Q,,,,,,,,,,FALSE,,TRUE,Stair,YES,,FULL,31st St,23rd Ave,NW,40.7749795,-73.912114
BMT,Astoria,Broadway,N,Q,,,,,,,,,,FALSE,,TRUE,Stair,YES,,FULL,31st St,Broadway,SW,40.761995,-73.9254935
BMT,Brighton,7 Av,B,Q,,,,,,,,,,FALSE,,TRUE,Stair,YES,,FULL,Flatbush Ave,Park Pl,SW,40.677344500000004,-73.9725
BMT,Brighton,Atlantic Av,B,D,N,Q,R,2,3,4,5,,,TRUE,,TRUE,Easement,YES,,NONE,Ashland Pl,Hanson Pl,NE,40.685222,-73.977628
BMT,Brighton,Avenue H,B,Q,,,,,,,,,,FALSE,,TRUE,Door,YES,,FULL,16th St,Avenue H,SW,40.6299085,-73.96168800000001
BMT,Brighton,Avenue J,B,Q,,,,,,,,,,FALSE,,TRUE,Stair,NO,YES,NONE,15th St,Avenue J,SE,40.6251245,-73.9608795
BMT,Brighton,Avenue M,B,Q,,,,,,,,,,FALSE,,TRUE,Door,NO,YES,NONE,,Avenue M,SW,40.617902,-73.95951249999999
BMT,Brighton,Avenue U,B,Q,,,,,,,,,,FALSE,,TRUE,Stair,NO,YES,NONE,15th St,Avenue U,NE,40.5989845,-73.9559145
BMT,Brighton,Beverly Rd,B,Q,,,,,,,,,,FALSE,,TRUE,Door,YES,,FULL,Marlborough Rd,Beverly Rd,SE,40.644272,-73.964528
BMT,Brighton,Brighton Beach,B,Q,,,,,,,,,,FALSE,,TRUE,Stair,YES,,FULL,Branch 7 St,Brighton Beach Rd,NE,40.5776865,-73.9611125
BMT,Brighton,Church Av,B,Q,,,,,,,,,,FALSE,,TRUE,Door,YES,,NONE,St. Pauls Pl,Caton Ave,SE,40.6504545,-73.963044
BMT,Brighton,Cortelyou Rd,B,Q,,,,,,,,,,FALSE,,TRUE,Door,YES,,FULL,Marlborough Rd,Cortelyou Rd,SE,40.641314,-73.963996
BMT,Brighton,Kings Hwy,B,Q,,,,,,,,,,FALSE,,TRUE,Doorway,NO,YES,NONE,E 16 St,Kings Highway,SW,40.6086905,-73.9576385
BMT,Brighton,Neck Rd,B,Q,,,,,,,,,,FALSE,,TRUE,Door,YES,,FULL,15th St,Gravesend Neck Rd,NE,40.59502,-73.95512
BMT,Brighton,Newkirk Av,B,Q,,,,,,,,,,FALSE,,TRUE,Door,YES,,FULL,Marlborough Rd,Newkirk Ave,SE,40.635034,-73.962736
BMT,Brighton,Ocean Pkwy,Q,,,,,,,,,,,FALSE,,TRUE,Stair,YES,,NONE,Ocean Pkwy,Brighton Beach Rd,NW,40.576358,-73.968503
BMT,Brighton,Parkside Av,B,Q,,,,,,,,,,FALSE,,TRUE,Stair,NO,YES,NONE,Ocean Ave,Woodruff Ave,NW,40.654736,-73.9617125
BMT,Brighton,Prospect Park,B,Q,FS,,,,,,,,,TRUE,,TRUE,Door,YES,,FULL,Ocean Ave,Lincoln Rd,NE,40.6617595,-73.962197
BMT,Brighton,Sheepshead Bay,B,Q,,,,,,,,,,FALSE,,TRUE,Door,YES,,FULL,15th St,Sheepshead Bay Rd,SE,40.586518,-73.9542975
BMT,Broadway,14 St-Union Sq,L,N,Q,R,4,5,6,,,,,TRUE,Lex not ADA,TRUE,Stair,YES,,NONE,Broadway,14th St,SW,40.735639,-73.990514
BMT,Broadway,23 St,N,R,,,,,,,,,,FALSE,,FALSE,Stair,NO,YES,NONE,Broadway,22nd St,NW,40.741277999999994,-73.989267
BMT,Broadway,28 St,N,R,,,,,,,,,,FALSE,,FALSE,Stair,YES,,NONE,Broadway,28th St,NW,40.7452885,-73.988741
BMT,Broadway,34 St-Herald Sq,B,D,F,M,N,Q,R,,,,,TRUE,,TRUE,Stair,YES,,NONE,Broadway,32nd St,NW,40.7490925,-73.98789149999999
BMT,Broadway,49 St,N,Q,R,,,,,,,,,TRUE,Northbound Only,FALSE,Easement,YES,,NONE,Broadway,47th St,NE,40.759825500000005,-73.984136
BMT,Broadway,57 St-7 Av,N,Q,R,,,,,,,,,FALSE,,TRUE,Stair,YES,,NONE,7th Ave,55th St,SW,40.7649265,-73.98052100000001
BMT,Broadway,5th Av/59 St,N,Q,R,,,,,,,,,FALSE,,TRUE,Easement,YES,,NONE,Grand Army Plaza,Central Park South,SW,40.7648775,-73.9732285
BMT,Broadway,8 St-NYU,N,R,,,,,,,,,,FALSE,,FALSE,Stair,YES,,NONE,Broadway,Waverly Pl,NW,40.7302255,-73.992739
BMT,Broadway,Canal St,J,N,Q,R,Z,6,,,,,,FALSE,NQRZ not ADA,TRUE,Stair,YES,,FULL,Lafayette St,Canal St,SE,40.7189075,-74.001187
BMT,Broadway,City Hall,R,,,,,,,,,,,FALSE,,TRUE,Stair,YES,,NONE,Broadway,Warren St,SE,40.7133155,-74.006871
BMT,Broadway,Cortlandt St,R,,,,,,,,,,,FALSE,,TRUE,Easement,YES,,NONE,Church St,Cortlandt St,SE,40.710633,-74.010921
BMT,Broadway,Court St,R,2,3,4,5,,,,,,,FALSE,R not ADA,TRUE,Stair,YES,,NONE,Clinton St,Montague St,NW,40.6943535,-73.99272450000001
BMT,Broadway,Jay St-MetroTech,A,C,F,R,,,,,,,,TRUE,,TRUE,Stair,YES,,FULL,Lawrence St,Willoughby St,NE,40.692169500000006,-73.9856815
BMT,Broadway,Lexington Av/59 St,N,Q,R,4,5,6,,,,,,FALSE,,TRUE,Stair,YES,,NONE,Lexington Ave,60th St,NW,40.762491,-73.966884
BMT,Broadway,Prince St,N,R,,,,,,,,,,FALSE,,FALSE,Stair,YES,,NONE,Broadway,Prince St,SW,40.724234,-73.997795
BMT,Broadway,Rector St,R,,,,,,,,,,,FALSE,,FALSE,Stair,NO,YES,NONE,Trinity Pl,Exchange Alley,NW,40.707214,-74.01334800000001
BMT,Broadway,Times Sq-42 St,A,C,E,N,Q,R,GS,1,2,3,7,TRUE,Shuttle not ADA,TRUE,Stair,YES,,NONE,Broadway,40th St,NW,40.7543395,-73.9868655
BMT,Broadway,Whitehall St-South Ferry,R,1,,,,,,,,,,FALSE,R not ADA,TRUE,Stair,YES,,NONE,Whitehall St,Stone St,W,40.703025999999994,-74.0129405
BMT,Canarsie,1 Av,L,,,,,,,,,,,FALSE,,FALSE,Stair,YES,,NONE,1st Av,14th St,SE,40.731266500000004,-73.9823685
BMT,Canarsie,3 Av,L,,,,,,,,,,,FALSE,,FALSE,Stair,YES,,FULL,3rd Av,14th St,SE,40.733119,-73.9867945
BMT,Canarsie,6 Av,F,L,M,1,2,3,,,,,,FALSE,,TRUE,Stair,YES,,NONE,6th Av,14th St,SE,40.737173,-73.996641
BMT,Canarsie,8 Av,A,C,E,L,,,,,,,,TRUE,,TRUE,Stair,YES,,FULL,8th Av,14th St,SW,40.739742500000006,-74.0025965
BMT,Canarsie,Atlantic Av,L,,,,,,,,,,,FALSE,,TRUE,Stair,YES,,FULL,Snediker Av,New York Av,SW,40.6754945,-73.90268950000001
BMT,Canarsie,Bedford Av,L,,,,,,,,,,,FALSE,,TRUE,Stair,YES,,NONE,Driggs Av,N 7th St,SE,40.7173545,-73.956976
BMT,Canarsie,Bushwick Av-Aberdeen St,L,,,,,,,,,,,FALSE,,TRUE,Door,YES,,FULL,De Sales Pl,Bushwick Av,NW,40.6823,-73.905149
BMT,Canarsie,Canarsie-Rockaway Pkwy,L,,,,,,,,,,,TRUE,,TRUE,Walkway,YES,,NONE,Rockaway Pkwy,E 98 St,NW,40.6457585,-73.90214399999999
BMT,Canarsie,DeKalb Av,L,,,,,,,,,,,FALSE,,TRUE,Stair,YES,,NONE,Stanhope St,Wycoff Av,SW,40.703863999999996,-73.918529
BMT,Canarsie,East 105 St,L,,,,,,,,,,,FALSE,,TRUE,Stair,YES,,FULL,Turnbull Av,E 105th St,SE,40.65137,-73.89902649999999
BMT,Canarsie,Graham Av,L,,,,,,,,,,,FALSE,,FALSE,Stair,YES,,NONE,Graham Ave,Metropolitan Av,NW,40.714546999999996,-73.94438
BMT,Canarsie,Grand St,L,,,,,,,,,,,FALSE,,FALSE,Stair,YES,,NONE,Grand St,Bushwick Av,NE,40.711986499999995,-73.94070450000001
BMT,Canarsie,Halsey St,L,,,,,,,,,,,FALSE,,FALSE,Stair,YES,,NONE,Norman St,Wyckoff Av,NE,40.69564,-73.904165
BMT,Canarsie,Jefferson St,L,,,,,,,,,,,FALSE,,TRUE,Stair,YES,,FULL,Starr St,Wyckoff Av,SW,40.706586,-73.9228935
BMT,Canarsie,Livonia Av,L,,,,,,,,,,,FALSE,,TRUE,Door,YES,,FULL,Van Sinderen Av,Livonia Av,SW,40.663745500000005,-73.90050199999999
BMT,Canarsie,Lorimer St,G,L,,,,,,,,,,FALSE,,TRUE,Stair,YES,,NONE,Union St,Metropolitan St,NE,40.714059000000006,-73.9502755
BMT,Canarsie,Montrose Av,L,,,,,,,,,,,FALSE,,TRUE,Stair,YES,,FULL,Montrose Av,Bushwick Av,SW,40.707771,-73.9398965
BMT,Canarsie,Morgan Av,L,,,,,,,,,,,FALSE,,TRUE,Stair,YES,,FULL,Morgan Av,Harrison Pl,SW,40.706195,-73.9326645
BMT,Canarsie,Myrtle-Wyckoff Avs,L,M,,,,,,,,,,TRUE,,TRUE,Door,YES,,FULL,Wyckoff St,Myrtle St,NW,40.699641,-73.911063
BMT,Canarsie,New Lots Av,L,,,,,,,,,,,FALSE,,TRUE,Stair,YES,,FULL,Van Sinderen Av,New Lots Av,SW,40.659041,-73.899409
BMT,Canarsie,Sutter Av,L,,,,,,,,,,,FALSE,,TRUE,Stair,YES,,FULL,LIRR Bay Ridge Divide,Sutter Av,NW,40.668527,-73.901765
BMT,Canarsie,Wilson Av,L,,,,,,,,,,,FALSE,,TRUE,Stair,YES,,FULL,LIRR Bay Ridge Divide,Wilson Ave,NW,40.688805,-73.904741
BMT,Coney Island,Coney Island-Stillwell Av,D,F,N,Q,,,,,,,,TRUE,,TRUE,Stair,YES,,NONE,Stillwell Ave,Surf Ave,NE,40.5765705,-73.9809615
BMT,Coney Island,West 8 St-NY Aquarium,F,Q,,,,,,,,,,FALSE,,TRUE,Stair,YES,,NONE,W 8 St,Surf Av,NE,40.5759815,-73.97586749999999
BMT,Franklin Shuttle,Botanic Garden,FS,2,3,4,5,,,,,,,FALSE,,TRUE,Stair,YES,,FULL,Franklin Av,Eastern Pkwy,SW,40.670588,-73.959093
BMT,Franklin Shuttle,Park Pl,FS,,,,,,,,,,,TRUE,,TRUE,Stair,YES,,FULL,Franklin Av,Park Pl,NW,40.674862,-73.9577615
BMT,Jamaica,104 St,J,Z,,,,,,,,,,FALSE,,TRUE,Stair,YES,,FULL,104th St,Jamaica Av,SE,40.69515,-73.8432605
BMT,Jamaica,111 St,J,,,,,,,,,,,FALSE,,TRUE,Stair,YES,,FULL,111th St,Jamaica Blvd,SE,40.696912999999995,-73.837099
BMT,Jamaica,121 St,J,Z,,,,,,,,,,FALSE,,TRUE,Stair,YES,,NONE,123rd St,Jamaica Av,NW,40.700531,-73.82828549999999
BMT,Jamaica,75 St-Elderts Ln,J,Z,,,,,,,,,,FALSE,,TRUE,Stair,YES,,FULL,75th St,Jamaica,NW,40.691382000000004,-73.8665175
BMT,Jamaica,85 St-Forest Pkwy,J,,,,,,,,,,,FALSE,,TRUE,Stair,YES,,FULL,85th St,Jamaica Av,NE,40.6925235,-73.8590365
BMT,Jamaica,Alabama Av,J,,,,,,,,,,,FALSE,,TRUE,Stair,YES,,FULL,Alabama Av,Fulton St,SE,40.676778999999996,-73.89967200000001
BMT,Jamaica,Chauncey St,J,Z,,,,,,,,,,FALSE,,TRUE,Stair,YES,,FULL,Moffat St,Broadway,NW,40.683364999999995,-73.911288
BMT,Jamaica,Cleveland St,J,,,,,,,,,,,FALSE,,TRUE,Stair,YES,,FULL,Cleveland St,Fulton St,NW,40.679593,-73.88572350000001
BMT,Jamaica,Crescent St,J,Z,,,,,,,,,,FALSE,,TRUE,Stair,YES,,FULL,Pine St,Fulton St,NE,40.683533,-73.872574
BMT,Jamaica,Cypress Hills,J,,,,,,,,,,,FALSE,,TRUE,Stair,YES,,FULL,Crescent St,Jamaica Av,NE,40.689806000000004,-73.8725925
BMT,Jamaica,Flushing Av,J,M,,,,,,,,,,TRUE,,TRUE,Stair,YES,,FULL,Flushing Av,Broadway,SE,40.700738,-73.9419415
BMT,Jamaica,Gates Av,J,Z,,,,,,,,,,FALSE,,TRUE,Stair,YES,,FULL,Linden St,Broadway,SW,40.690086,-73.9231115
BMT,Jamaica,Halsey St,J,,,,,,,,,,,FALSE,,TRUE,Stair,YES,,FULL,Weirfield St,Broadway,SE,40.6858965,-73.91576
BMT,Jamaica,Hewes St,J,M,,,,,,,,,,FALSE,,TRUE,Stair,YES,,FULL,Hooper St,Broadway,SW,40.7071825,-73.954348
BMT,Jamaica,Kosciusko St,J,,,,,,,,,,,FALSE,,TRUE,Stair,YES,,FULL,Patchen Av,Broadway,NE,40.6929295,-73.9280985
BMT,Jamaica,Lorimer St,J,M,,,,,,,,,,FALSE,,TRUE,Stair,YES,,FULL,Moore St,Broadway,SW,40.7038585,-73.94743
BMT,Jamaica,Marcy Av,J,M,Z,,,,,,,,,TRUE,,FALSE,Stair,YES,,NONE,Marcy Av,Broadway,SW,40.7085295,-73.958308
BMT,Jamaica,Myrtle Av,J,M,Z,,,,,,,,,FALSE,,TRUE,Stair,YES,,FULL,Broadway,Myrtle Av,SW,40.69694,-73.93551
BMT,Jamaica,Norwood Av,J,Z,,,,,,,,,,FALSE,,TRUE,Stair,YES,,FULL,Norwood Av,Fulton St,NE,40.6817,-73.8789955
BMT,Jamaica,Van Siclen Av,J,Z,,,,,,,,,,FALSE,,TRUE,Stair,YES,,FULL,Van Siclen Av,Fulton St,SW,40.6778555,-73.8916385
BMT,Jamaica,Woodhaven Blvd,J,Z,,,,,,,,,,FALSE,,TRUE,Stair,YES,,FULL,Woodhaven Blvd,Jamaica Av,NW,40.693764,-73.851542
BMT,Myrtle Avenue,Central Av,M,,,,,,,,,,,FALSE,,TRUE,Stair,YES,,FULL,Myrtle Av,Cedar St,SW,40.6979545,-73.926448
BMT,Myrtle Avenue,Forest Av,M,,,,,,,,,,,FALSE,,TRUE,Stair,YES,,FULL,Forest Av,Myrtle Av,SW,40.704586,-73.902316
BMT,Myrtle Avenue,Fresh Pond Rd,M,,,,,,,,,,,FALSE,,TRUE,Stair,YES,,FULL,Fresh Pond Rd,67th Av,SE,40.706035,-73.8958955
BMT,Myrtle Avenue,Knickerbocker Av,M,,,,,,,,,,,FALSE,,TRUE,Stair,YES,,FULL,Myrtle Av,Greene Av,SE,40.698814999999996,-73.918713
BMT,Myrtle Avenue,Middle Village-Metropolitan Av,M,,,,,,,,,,,TRUE,,TRUE,Door,YES,,FULL,69th St,Metropolitan Av,SW,40.712082,-73.88954
BMT,Myrtle Avenue,Seneca Av,M,,,,,,,,,,,FALSE,,TRUE,Stair,YES,,FULL,Myrtle Av,Seneca Av,SW,40.7028075,-73.9077045
BMT,Nassau Loop,Bowery,J,Z,,,,,,,,,,FALSE,,TRUE,Stair,YES,,FULL,Bowery,Delancey St,SE,40.720134,-73.9934935
BMT,Nassau Loop,Broad St,J,Z,,,,,,,,,,FALSE,,TRUE,Easement,YES,,PART,Nassau St,Cedar St,SE,40.706887,-74.010684
BMT,Nassau Loop,Canal St,J,N,Q,R,Z,6,,,,,,FALSE,NQRZ not ADA,TRUE,Stair,YES,,NONE,Centre St,Canal St,SW,40.717823,-74.000326
BMT,Nassau Loop,Chambers St,J,Z,4,5,6,,,,,,,FALSE,JZ not ADA,TRUE,Stair,YES,,NONE,Lafayette St,Chambers St,SE,40.713449,-74.003643
BMT,Nassau Loop,Delancey St-Essex St,F,J,M,Z,,,,,,,,FALSE,,TRUE,Stair,YES,,FULL,Norfolk St,Delancey St,NW,40.7184805,-73.9874155
BMT,Nassau Loop,Fulton St,A,C,J,Z,2,3,4,5,,,,FALSE,,TRUE,Easement,YES,,NONE,John St,Nassau St,SE,40.709882,-74.0079795
BMT,Sea Beach,18 Av,N,,,,,,,,,,,FALSE,,TRUE,Door,YES,,FULL,18th Ave,64th St,NW,40.620684,-73.99043950000001
BMT,Sea Beach,20 Av,N,,,,,,,,,,,FALSE,,TRUE,Door,YES,,FULL,20th Ave,64th St,NE,40.617341,-73.98484
BMT,Sea Beach,8 Av,N,,,,,,,,,,,FALSE,,TRUE,Door,YES,,FULL,8th Ave,62nd St,NW,40.634552,-74.010726
BMT,Sea Beach,86 St,N,,,,,,,,,,,FALSE,,TRUE,Door,YES,,FULL,8th St,86th St,SE,40.592724,-73.978227
BMT,Sea Beach,Avenue U,N,,,,,,,,,,,FALSE,,TRUE,Door,YES,,NONE,8th St,Avenue T,SE,40.597485500000005,-73.979139
BMT,Sea Beach,Bay Pkwy,N,,,,,,,,,,,FALSE,,TRUE,Door,YES,,FULL,Bay Pkwy,66th St,SE,40.611780499999995,-73.9818485
BMT,Sea Beach,Fort Hamilton Pkwy,N,,,,,,,,,,,FALSE,,TRUE,Door,YES,,FULL,Fort Hamilton Pkwy,62nd St,NE,40.631394,-74.0053625
BMT,Sea Beach,Kings Hwy,N,,,,,,,,,,,FALSE,,TRUE,Door,YES,,FULL,7th St,Kings Hwy,NW,40.604159499999994,-73.9803885
BMT,Sea Beach,New Utrecht Av,D,N,,,,,,,,,,FALSE,,TRUE,Door,YES,,FULL,New Utrecht Ave,62nd St,SE,40.624926,-73.996396
BMT,West End,18 Av,D,,,,,,,,,,,FALSE,,TRUE,Stair,YES,,FULL,18th Ave,85th St,SE,40.6077495,-74.00169249999999
BMT,West End,20 Av,D,,,,,,,,,,,FALSE,,TRUE,Stair,YES,,FULL,20th Ave,86th St,SW,40.604614,-73.9982525
BMT,West End,25 Av,D,,,,,,,,,,,FALSE,,TRUE,Stair,YES,,FULL,25th Ave,86th St,SW,40.5979255,-73.9872
BMT,West End,50 St,D,,,,,,,,,,,FALSE,,TRUE,Stair,YES,,FULL,New Utrecht Ave,50th St,NW,40.636274,-73.99479400000001
BMT,West End,55 St,D,,,,,,,,,,,FALSE,,TRUE,Stair,YES,,FULL,New Utrecht Ave,55th St,SW,40.631549,-73.9954525
BMT,West End,62 St,D,N,,,,,,,,,,FALSE,,TRUE,Stair,YES,,NONE,14th Ave,61st St,NW,40.627238500000004,-73.9966675
BMT,West End,71 St,D,,,,,,,,,,,FALSE,,TRUE,Stair,YES,,FULL,New Utrecht Ave,71st St,NW,40.6195745,-73.998895
BMT,West End,79 St,D,,,,,,,,,,,FALSE,,TRUE,Stair,YES,,FULL,New Utrecht Ave,79th St,NW,40.6134505,-74.00063499999999
BMT,West End,9 Av,D,,,,,,,,,,,FALSE,,TRUE,Door,YES,,FULL,9th Ave,New Utrecht Ave,NE,40.646337,-73.994489
BMT,West End,Bay 50 St,D,,,,,,,,,,,FALSE,,TRUE,Stair,YES,,FULL,Stillwell Ave,Bay 50th St,SW,40.588185,-73.9836445
BMT,West End,Bay Pkwy,D,,,,,,,,,,,FALSE,,TRUE,Stair,YES,,FULL,Bay Pkwy,86th St,SW,40.601938000000004,-73.99383399999999
BMT,West End,Fort Hamilton Pkwy,D,,,,,,,,,,,FALSE,,TRUE,Stair,YES,,FULL,New Utrecht Ave,45th St,NW,40.6407795,-73.9943055
IND,63rd Street,21 St-Queensbridge,F,,,,,,,,,,,TRUE,,TRUE,Escalator,YES,,FULL,21st St,41st Ave,NW,40.7541955,-73.942228
IND,63rd Street,Lexington Av/63 St,F,,,,,,,,,,,TRUE,,TRUE,Stair,YES,,FULL,Lexington Av,63rd St,SW,40.7648025,-73.96648149999999
IND,63rd Street,Roosevelt Island,F,,,,,,,,,,,TRUE,,TRUE,Door,YES,,FULL,West Rd,Unnamed St,SE,40.759016,-73.953505
IND,6th Avenue,14 St,F,L,M,1,2,3,,,,,,FALSE,,TRUE,Stair,YES,,FULL,6th Ave,14th St,SW,40.738062,-73.996426
IND,6th Avenue,2 Av,F,,,,,,,,,,,FALSE,,TRUE,Stair,YES,,NONE,Chrystie St,Houston St,SW,40.7233785,-73.990257
IND,6th Avenue,23 St,F,M,,,,,,,,,,FALSE,,FALSE,Stair,YES,,NONE,6th Ave,23rd St,SW,40.74289,-73.9927855
IND,6th Avenue,34 St-Herald Sq,B,D,F,M,N,Q,R,,,,,TRUE,,TRUE,Elevator,YES,,FULL,Broadway,34 St,SW,40.749813,-73.9878815
IND,6th Avenue,42 St-Bryant Pk,B,D,F,M,7,,,,,,,FALSE,,TRUE,Stair,YES,,NONE,6th Av,40th St,SW,40.7543705,-73.98445799999999
IND,6th Avenue,47-50 Sts-Rockefeller Ctr,B,D,F,M,,,,,,,,TRUE,,TRUE,Stair,YES,,NONE,6th Av,47th St,SW,40.7591515,-73.981098
IND,6th Avenue,57 St,F,,,,,,,,,,,FALSE,,TRUE,Stair,YES,,NONE,6th Av,56th St,SW,40.764022,-73.97740200000001
IND,6th Avenue,B'way-Lafayette St,B,D,F,M,,,,,,,,FALSE,,TRUE,Stair,YES,,NONE,Lafayette St,Houston St,SW,40.725243,-73.99609749999999
IND,6th Avenue,Delancey St-Essex St,F,J,M,Z,,,,,,,,FALSE,,TRUE,Stair,YES,,NONE,Essex St,Delancey St,SW,40.718491,-73.9881735
IND,6th Avenue,East Broadway,F,,,,,,,,,,,FALSE,,TRUE,Stair,YES,,NONE,Rutgers St,Broadway,NW,40.7135655,-73.99013500000001
IND,6th Avenue,Grand St,B,D,,,,,,,,,,FALSE,,TRUE,Stair,YES,,FULL,Chrystie St,Grand St,NW,40.71821,-73.9936645
IND,6th Avenue,York St,F,,,,,,,,,,,FALSE,,TRUE,Stair,YES,,FULL,Jay St,York St,SW,40.70138,-73.986655
IND,8th Avenue,103 St,B,C,,,,,,,,,,FALSE,,TRUE,Stair,YES,,FULL,Central Park W,103rd St,NW,40.796263,-73.96161
IND,8th Avenue,116 St,B,C,,,,,,,,,,FALSE,,FALSE,Stair,YES,,FULL,Frederick Douglass Blvd,116th St,SW,40.8044055,-73.9553335
IND,8th Avenue,125 St,A,B,C,D,,,,,,,,FALSE,,TRUE,Stair,YES,,FULL,Saint Nicholas Av,125th St,SW,40.811258,-73.95211850000001
IND,8th Avenue,135 St,B,C,,,,,,,,,,FALSE,,FALSE,Stair,YES,,FULL,Saint Nicholas Av,135th St,SW,40.8177125,-73.947719
IND,8th Avenue,14 St,A,C,E,L,,,,,,,,TRUE,,TRUE,Stair,YES,,FULL,8th Av,14th St,NW,40.7405055,-74.0019695
IND,8th Avenue,145 St,A,B,C,D,,,,,,,,FALSE,,TRUE,Stair,YES,,FULL,Saint Nicholas Av,145th St,SW,40.824706500000005,-73.94423549999999
IND,8th Avenue,155 St,C,,,,,,,,,,,FALSE,,TRUE,Stair,YES,,FULL,Saint Nicholas Av,155th St,SW,40.8309415,-73.94136900000001
IND,8th Avenue,163 St-Amsterdam Av,C,,,,,,,,,,,FALSE,,FALSE,Stair,YES,,FULL,Saint Nicholas Av,162nd St,SW,40.835564,-73.9398855
IND,8th Avenue,168 St,A,C,1,,,,,,,,,TRUE,1 not ADA,TRUE,Stair,YES,,NONE,Saint Nicholas Av,169th St,NW,40.8413345,-73.939318
IND,8th Avenue,175 St,A,,,,,,,,,,,TRUE,,TRUE,Stair,YES,,NONE,Fort Washington Av,175th St,SW,40.847172,-73.939795
IND,8th Avenue,181 St,A,,,,,,,,,,,FALSE,,TRUE,Stair,YES,,NONE,Fort Washington Av,181st St,SW,40.851738,-73.9375865
IND,8th Avenue,190 St,A,,,,,,,,,,,FALSE,,TRUE,Stair,YES,,FULL,Fort Washington Av,Cabrini Blvd,SE,40.858928500000005,-73.93347
IND,8th Avenue,23 St,C,E,,,,,,,,,,FALSE,,TRUE,Stair,YES,,NONE,8th Av,23rd St,SW,40.745917000000006,-73.9979565
IND,8th Avenue,34 St-Penn Station,A,C,E,,,,,,,,,TRUE,,TRUE,Stair,YES,,PART,8th Av,33rd St,SW,40.752172,-73.9934195
IND,8th Avenue,42 St-Port Authority Bus Terminal,A,C,E,N,Q,R,GS,1,2,3,7,TRUE,Shuttle not ADA,TRUE,Easement,YES,,FULL,8th Av,40th St,SW,40.757243,-73.989861
IND,8th Avenue,50 St,C,E,,,,,,,,,,TRUE,Southbound Only,FALSE,Stair,YES,,FULL,8th Av,49th St,SW,40.7622955,-73.98616799999999
IND,8th Avenue,59 St-Columbus Circle,A,B,C,D,1,,,,,,,TRUE,In Construction,TRUE,Stair,YES,,PART,Central Park West,60th St,West,40.7675675,-73.98229599999999
IND,8th Avenue,72 St,B,C,,,,,,,,,,FALSE,,TRUE,Stair,YES,,NONE,Central Park West,70th St,SW,40.7756855,-73.9765605
IND,8th Avenue,81 St-Museum of Natural History,B,C,,,,,,,,,,FALSE,,TRUE,Stair,YES,,NONE,Central Park West,77th St,NW,40.7812865,-73.97246
IND,8th Avenue,86 St,B,C,,,,,,,,,,FALSE,,TRUE,Stair,YES,,FULL,Central Park West,86th St,SW,40.785982000000004,-73.969055
IND,8th Avenue,96 St,B,C,,,,,,,,,,FALSE,,TRUE,Stair,YES,,FULL,Central Park West,96th St,SW,40.792116500000006,-73.9646625
IND,8th Avenue,Canal St,A,C,E,,,,,,,,,FALSE,,TRUE,Stair,YES,,FULL,Thompson St,Canal St,NE,40.720918499999996,-74.00531649999999
IND,8th Avenue,Cathedral Pkwy (110 St),B,C,,,,,,,,,,FALSE,,TRUE,Stair,YES,,FULL,Frederick Douglass Blvd,109th St,SW,40.800433999999996,-73.9586435
IND,8th Avenue,Chambers St,A,C,E,2,3,,,,,,,FALSE,,TRUE,Stair,YES,,NONE,Church St,Murray St,NW,40.714524,-74.00834950000001
IND,8th Avenue,Dyckman St,A,,,,,,,,,,,FALSE,,TRUE,Stair,YES,,FULL,Broadway,Dyckman St,SW,40.865503000000004,-73.92751150000001
IND,8th Avenue,Fulton St,A,C,J,Z,2,3,4,5,,,,FALSE,,TRUE,Easement,YES,,FULL,Broadway,Fulton St,NE,40.710692,-74.008428
IND,8th Avenue,High St,A,C,,,,,,,,,,FALSE,,TRUE,Stair,YES,,NONE,Sands St,Adams St,SE,40.6992585,-73.9898435
IND,8th Avenue,Inwood-207 St,A,,,,,,,,,,,TRUE,,TRUE,Stair,YES,,FULL,Broadway,207th St,SW,40.867898,-73.9203575
IND,8th Avenue,Spring St,C,E,,,,,,,,,,FALSE,,TRUE,Stair,YES,,NONE,6th Av,Spring St,NW,40.7258955,-74.00403650000001
IND,8th Avenue,W 4 St-Wash Sq,A,B,C,D,E,F,M,,,,,TRUE,,TRUE,Stair,YES,,FULL,6th Av,West 3rd St,NW,40.7321725,-74.0005745
IND,8th Avenue,World Trade Center,A,C,E,2,3,,,,,,,FALSE,Construction,TRUE,Stair,YES,,FULL,Church St,Vesey St,NW,40.7127315,-74.0096695
IND,Archer Avenue,Jamaica Center-Parsons/Archer,E,J,Z,,,,,,,,,TRUE,,TRUE,Stair,YES,,FULL,Parsons Blvd,Archer Ave,NE,40.7022305,-73.801131
IND,Archer Avenue,Jamaica-Van Wyck,E,,,,,,,,,,,FALSE,,TRUE,Stair,YES,,FULL,Van Wyck Expwy,Jamaica Ave,NW,40.701986000000005,-73.816821
IND,Archer Avenue,Sutphin Blvd-Archer Av-JFK Airport,E,J,Z,,,,,,,,,TRUE,,TRUE,Stair,YES,,FULL,Sutphin Blvd,Archer Ave,SW,40.7006365,-73.8076645
IND,Concourse,155 St,B,D,,,,,,,,,,FALSE,,TRUE,Stair,YES,,FULL,Frederick Douglass Blvd,156th St,NW,40.830313,-73.936687
IND,Concourse,161 St-Yankee Stadium,B,D,4,,,,,,,,,TRUE,,TRUE,Door,YES,,NONE,Walton Av,161st St,NW,40.8276925,-73.925139
IND,Concourse,167 St,B,D,,,,,,,,,,FALSE,,TRUE,Stair,YES,,NONE,Grand Concourse,McClellan St,SW,40.83385,-73.91832199999999
IND,Concourse,170 St,B,D,,,,,,,,,,FALSE,,TRUE,Stair,YES,,NONE,Grand Concourse,170th St,SW,40.839259,-73.913467
IND,Concourse,174-175 Sts,B,D,,,,,,,,,,FALSE,,TRUE,Door,YES,,FULL,Grand Concourse,174th St,NW,40.845697,-73.91012950000001
IND,Concourse,182-183 Sts,B,D,,,,,,,,,,FALSE,,TRUE,Stair,YES,,FULL,Grand Concourse,182nd St,SW,40.856050499999995,-73.90079449999999
IND,Concourse,Bedford Park Blvd,B,D,,,,,,,,,,FALSE,,TRUE,Stair,YES,,FULL,Grand Concourse,Bedford Park Blvd,NW,40.8731095,-73.88718
IND,Concourse,Fordham Rd,B,D,,,,,,,,,,FALSE,,TRUE,Stair,YES,,FULL,Grand Concourse,188th St,SW,40.861877500000006,-73.89738
IND,Concourse,Kingsbridge Rd,B,D,,,,,,,,,,FALSE,,TRUE,Stair,YES,,NONE,Grand Concourse,Kingsbridge Rd,NW,40.8671205,-73.89363
IND,Concourse,Norwood-205 St,D,,,,,,,,,,,FALSE,,TRUE,Stair,YES,,NONE,Perry Av,205th St,NW,40.874554,-73.8785555
IND,Concourse,Tremont Av,B,D,,,,,,,,,,FALSE,,TRUE,Stair,YES,,FULL,Grand Concourse,Echo Pl,SW,40.85052,-73.9051735
IND,Crosstown,21 St,G,,,,,,,,,,,FALSE,,TRUE,Stair,YES,,FULL,Jackson Ave,47th Ave,SW,40.7446615,-73.948771
IND,Crosstown,Bedford-Nostrand Avs,G,,,,,,,,,,,FALSE,,TRUE,Stair,YES,,FULL,Nostrand Ave,Lafayette Ave,NW,40.6896625,-73.9534825
IND,Crosstown,Broadway,G,,,,,,,,,,,FALSE,,TRUE,Stair,YES,,FULL,Union Ave,Heyward St,NW,40.7053045,-73.950308
IND,Crosstown,Classon Av,G,,,,,,,,,,,FALSE,,TRUE,Stair,YES,,FULL,Classon Ave,Lafayette Ave,NW,40.688847499999994,-73.96004300000001
IND,Crosstown,Clinton-Washington Avs,G,,,,,,,,,,,FALSE,,TRUE,Stair,YES,,NONE,Washington Ave,Lafayette Ave,NE,40.6881675,-73.966755
IND,Crosstown,Court Sq,E,G,M,7,,,,,,,,FALSE,,TRUE,Stair,YES,,NONE,Jackson Av,45th Rd,NW,40.7467925,-73.94431850000001
IND,Crosstown,Flushing Av,G,,,,,,,,,,,FALSE,,FALSE,Stair,YES,,FULL,Union Ave,Flushing Ave,SW,40.699783499999995,-73.9500295
IND,Crosstown,Fulton St,G,,,,,,,,,,,FALSE,,TRUE,Stair,YES,,NONE,S Portland Av,Lafayette Av,SW,40.687107,-73.9757725
IND,Crosstown,Greenpoint Av,G,,,,,,,,,,,FALSE,,TRUE,Stair,YES,,NONE,Manhattan Ave,India St,SW,40.731164,-73.95441650000001
IND,Crosstown,Metropolitan Av,G,L,,,,,,,,,,FALSE,,TRUE,Stair,YES,,NONE,Union Ave,Metropolitan Ave,NE,40.7138355,-73.9516115
IND,Crosstown,Myrtle-Willoughby Avs,G,,,,,,,,,,,FALSE,,TRUE,Stair,YES,,FULL,Marcy Ave,Myrtle Ave,NW,40.695468000000005,-73.94922
IND,Crosstown,Nassau Av,G,,,,,,,,,,,FALSE,,TRUE,Stair,YES,,NONE,Manhattan Ave,Norman Ave,NW,40.724611499999995,-73.95127
IND,Culver,18 Av,F,,,,,,,,,,,FALSE,,TRUE,Stair,YES,,FULL,McDonald Ave,18th Ave,SW,40.629617999999994,-73.97694849999999
IND,Culver,Avenue I,F,,,,,,,,,,,FALSE,,TRUE,Stair,YES,,FULL,McDonald Ave,Avenue I,NW,40.625213,-73.976112
IND,Culver,Avenue N,F,,,,,,,,,,,FALSE,,TRUE,Stair,YES,,NONE,McDonald Ave,Avenue M,SW,40.6152195,-73.9742085
IND,Culver,Avenue P,F,,,,,,,,,,,FALSE,,TRUE,Stair,YES,,FULL,McDonald Ave,Avenue P,SW,40.608828,-73.9730005
IND,Culver,Avenue U,F,,,,,,,,,,,FALSE,,TRUE,Stair,NO,YES,NONE,McDonald Av,Gravesend Neck Rd,SW,40.595962,-73.97337999999999
IND,Culver,Avenue X,F,,,,,,,,,,,FALSE,,TRUE,Stair,NO,YES,NONE,Shell Rd,Av X,SW,40.590206,-73.974166
IND,Culver,Bay Pkwy,F,,,,,,,,,,,FALSE,,TRUE,Stair,YES,,FULL,McDonald Ave,Bay Pkwy,SW,40.620979500000004,-73.97530850000001
IND,Culver,Ditmas Av,F,,,,,,,,,,,FALSE,,TRUE,Stair,YES,,NONE,McDonald Ave,Cortelyou Rd,SW,40.636248,-73.9781885
IND,Culver,Kings Hwy,F,,,,,,,,,,,FALSE,,TRUE,Stair,YES,,NONE,McDonald Ave,Avenue S,NW,40.6030925,-73.972382
IND,Culver,Neptune Av,F,,,,,,,,,,,FALSE,,TRUE,Stair,YES,,FULL,West 6th St,Neptune Av,NW,40.5805615,-73.9746105
IND,Far Rockaway,Beach 25 St,A,,,,,,,,,,,FALSE,,TRUE,Stair,YES,,FULL,Beach 25th St,Rockaway Frwy,NW,40.5995675,-73.7617775
IND,Far Rockaway,Beach 36 St,A,,,,,,,,,,,FALSE,,TRUE,Stair,YES,,FULL,Beach 36th,Edgemere Ave,NE,40.595456999999996,-73.768116
IND,Far Rockaway,Beach 44 St,A,,,,,,,,,,,FALSE,,TRUE,Stair,YES,,FULL,Beach 45th St,Edgemere Av,SW,40.592983000000004,-73.775912
IND,Far Rockaway,Beach 60 St,A,,,,,,,,,,,FALSE,,TRUE,Stair,YES,,FULL,Beach 60th St,Rockaway Frwy,SE,40.5923795,-73.7893655
IND,Far Rockaway,Beach 67 St,A,,,,,,,,,,,FALSE,,TRUE,Stair,YES,,FULL,Beach 67th St,Rockaway Frwy,SW,40.5910335,-73.796391
IND,Far Rockaway,Far Rockaway-Mott Av,A,,,,,,,,,,,FALSE,,TRUE,Door,YES,,FULL,Beach 22nd St,Mott Ave,SW,40.604657,-73.754178
IND,Fulton Street,Broadway Junction,A,C,J,L,Z,,,,,,,FALSE,,TRUE,Door,YES,,FULL,Fulton St,Van Sinderen Av,SW,40.678334,-73.903922
IND,Fulton Street,Clinton-Washington Avs,C,,,,,,,,,,,FALSE,,FALSE,Stair,YES,,NONE,Washington Av,Fulton Av,NE,40.6832815,-73.96584949999999
IND,Fulton Street,Euclid Av,A,C,,,,,,,,,,TRUE,,TRUE,Stair,YES,,FULL,Euclid Av,Pitkin Av,SW,40.675414,-73.8719285
IND,Fulton Street,Franklin Av,C,FS,,,,,,,,,,TRUE,,TRUE,Door,YES,,FULL,Franklin Av,Fulton St,SW,40.68115349999999,-73.955715
IND,Fulton Street,Hoyt-Schermerhorn,A,C,G,,,,,,,,,FALSE,,TRUE,Stair,YES,,FULL,Hoyt St,Schermerhorn St,NE,40.688740499999994,-73.9850785
IND,Fulton Street,Jay St-MetroTech,A,C,F,R,,,,,,,,TRUE,,TRUE,Escalator,YES,,FULL,Jay St,Willoughby St,NW,40.692525,-73.9872915
IND,Fulton Street,Kingston-Throop Avs,A,C,,,,,,,,,,FALSE,,FALSE,Stair,YES,,FULL,Throop Av,Fulton St,NW,40.679892499999994,-73.9408045
IND,Fulton Street,Lafayette Av,C,,,,,,,,,,,FALSE,,FALSE,Stair,YES,,FULL,Portland Av,Fulton Av,NW,40.686056,-73.973683
IND,Fulton Street,Liberty Av,A,C,,,,,,,,,,FALSE,,TRUE,Stair,YES,,FULL,Pennsylvania Av,Liberty Av,NW,40.6744045,-73.896544
IND,Fulton Street,Nostrand Av,A,C,,,,,,,,,,FALSE,,FALSE,Stair,YES,,FULL,Nostrand Av,Fulton St,NW,40.6804,-73.9495835
IND,Fulton Street,Ralph Av,A,C,,,,,,,,,,FALSE,,TRUE,Stair,YES,,FULL,Ralph Av,Mac Dougal St,NE,40.678933,-73.921656
IND,Fulton Street,Rockaway Av,A,C,,,,,,,,,,FALSE,,TRUE,Stair,YES,,NONE,Rockaway Av,Fulton St,NW,40.67830549999999,-73.9121965
IND,Fulton Street,Shepherd Av,A,C,,,,,,,,,,FALSE,,TRUE,Stair,YES,,FULL,Shepherd Av,Pitkin Av,SW,40.6741365,-73.880797
IND,Fulton Street,Utica Av,A,C,,,,,,,,,,FALSE,,TRUE,Stair,YES,,FULL,Utica Av,Fulton St,SW,40.679312499999995,-73.930873
IND,Fulton Street,Van Siclen Av,A,C,,,,,,,,,,FALSE,,TRUE,Stair,YES,,FULL,Van Siclen Av,Pitkin Av,NW,40.672664499999996,-73.89037400000001
IND,Liberty Avenue,104 St,A,,,,,,,,,,,FALSE,,TRUE,Stair,YES,,FULL,104th St,Liberty Av,NE,40.682057,-73.83678900000001
IND,Liberty Avenue,111 St,A,,,,,,,,,,,FALSE,,TRUE,Stair,YES,,FULL,111th St,Liberty Av,NE,40.684422999999995,-73.8318935
IND,Liberty Avenue,80 St,A,,,,,,,,,,,FALSE,,TRUE,Stair,YES,,FULL,80th St,Liberty Av,NE,40.6793565,-73.85915750000001
IND,Liberty Avenue,88 St,A,,,,,,,,,,,FALSE,,TRUE,Stair,YES,,FULL,88th St,Liberty Av,NE,40.6799005,-73.850407
IND,Liberty Avenue,Grant Av,A,,,,,,,,,,,FALSE,,TRUE,Door,YES,,FULL,Grant Av,Pitkin Av,NE,40.676735,-73.865491
IND,Liberty Avenue,Ozone Park-Lefferts Blvd,A,,,,,,,,,,,FALSE,,TRUE,Stair,YES,,FULL,Lefferts Blvd,Liberty Av,NW,40.685977,-73.8257105
IND,Liberty Avenue,Rockaway Blvd,A,,,,,,,,,,,FALSE,,TRUE,Stair,YES,,NONE,97th St,Liberty Av,SW,40.680465999999996,-73.843848
IND,Prospect Park,15 St-Prospect Park,F,G,,,,,,,,,,FALSE,,TRUE,Stair,YES,,FULL,Prospect Park West,16th St,NE,40.660418,-73.9794715
IND,Prospect Park,4 Av-9 St,F,G,R,,,,,,,,,FALSE,,TRUE,Door,YES,,FULL,4th Ave,10th St,NW,40.6699815,-73.989345
IND,Prospect Park,7 Av,F,G,,,,,,,,,,FALSE,,TRUE,Stair,YES,,FULL,8th Ave,9th St,SW,40.666303,-73.980429
IND,Prospect Park,Bergen St,F,G,,,,,,,,,,FALSE,,FALSE,Stair,YES,,NONE,Smith St,Warren St,NW,40.686156499999996,-73.99086700000001
IND,Prospect Park,Carroll St,F,G,,,,,,,,,,FALSE,,TRUE,Stair,YES,,FULL,Smith St,2nd St,SE,40.680229499999996,-73.9947675
IND,Prospect Park,Church Av,F,G,,,,,,,,,,TRUE,,TRUE,Stair,YES,,NONE,McDonald Ave,Albemarle Rd,SW,40.6438065,-73.97963949999999
IND,Prospect Park,Fort Hamilton Pkwy,F,G,,,,,,,,,,FALSE,,TRUE,Door,YES,,NONE,Prospect Expwy,Fort Hamilton Pkwy,NW,40.651259499999995,-73.975836
IND,Prospect Park,Smith-9 Sts,F,G,,,,,,,,,,FALSE,,TRUE,Door,YES,,FULL,Smith St,9th St,NE,40.674725,-73.997505
IND,Queens,169 St,F,,,,,,,,,,,FALSE,,TRUE,Stair,YES,,FULL,169th St,Hillside Av,NW,40.710390000000004,-73.7938415
IND,Queens,36 St,M,R,,,,,,,,,,FALSE,,FALSE,Stair,YES,,NONE,36th St,Northern Blvd,NE,40.752053000000004,-73.928863
IND,Queens,46 St,M,R,,,,,,,,,,FALSE,,FALSE,Stair,YES,,NONE,48th St,Broadway,SE,40.7563405,-73.91329350000001
IND,Queens,5 Av/53 St,E,M,,,,,,,,,,FALSE,,TRUE,Stair,YES,,NONE,Madison Ave,53rd St,SE,40.759989000000004,-73.975002
IND,Queens,63 Dr-Rego Park,M,R,,,,,,,,,,FALSE,,TRUE,Stair,YES,,FULL,64th Rd,Queens Blvd,NW,40.729632,-73.86118350000001
IND,Queens,65 St,M,R,,,,,,,,,,FALSE,,TRUE,Stair,YES,,FULL,65th St,Broadway,SE,40.7492375,-73.89743849999999
IND,Queens,67 Av,M,R,,,,,,,,,,FALSE,,TRUE,Stair,YES,,NONE,67th Dr,Queens Blvd,SW,40.7265515,-73.852563
IND,Queens,7 Av,B,D,E,,,,,,,,,FALSE,,TRUE,Stair,YES,,NONE,Broadway,53rd St,SE,40.763090500000004,-73.982122
IND,Queens,75 Av,E,F,,,,,,,,,,FALSE,,FALSE,Stair,YES,,FULL,75th Rd,Queens Blvd,SE,40.718478000000005,-73.8375
IND,Queens,Briarwood-Van Wyck Blvd,F,,,,,,,,,,,FALSE,,FALSE,Stair,YES,,FULL,Van Wyck Blvd,Queens Blvd,SW,40.708692,-73.819942
IND,Queens,Court Sq-23 St,E,G,M,7,,,,,,,,FALSE,,TRUE,Stair,YES,,NONE,23rd St,44th Ave,NE,40.7479505,-73.945933
IND,Queens,Elmhurst Av,M,R,,,,,,,,,,FALSE,,FALSE,Stair,YES,,FULL,Elmhurst Av,Broadway,SW,40.742333,-73.88203200000001
IND,Queens,Forest Hills-71 Av,E,F,M,R,,,,,,,,FALSE,,TRUE,Stair,YES,,FULL,71st,Queens Blvd,SW,40.721684499999995,-73.84427099999999
IND,Queens,Grand Av-Newtown,M,R,,,,,,,,,,FALSE,,TRUE,Stair,YES,,FULL,Broadway,Queens Blvd,SW,40.7366825,-73.876924
IND,Queens,Jackson Heights-Roosevelt Av,E,F,M,R,7,,,,,,,TRUE,,TRUE,Door,YES,,FULL,75th St,Roosevelt Av,SW,40.746612999999996,-73.8913815
IND,Queens,Jamaica-179 St,F,,,,,,,,,,,TRUE,,TRUE,Stair,YES,,FULL,Midland Pkwy,Hillside Av,NE,40.712723499999996,-73.7835915
IND,Queens,Kew Gardens-Union Tpke,E,F,,,,,,,,,,TRUE,,TRUE,Stair,YES,,NONE,Union Tpke,Queens Blvd,NW,40.714341,-73.83103399999999
IND,Queens,Lexington Av/53 St,E,M,6,,,,,,,,,TRUE,,TRUE,Elevator,YES,,NONE,Lexington Avenue,52nd Street,NE,40.7579825,-73.970133
IND,Queens,Northern Blvd,M,R,,,,,,,,,,FALSE,,FALSE,Stair,YES,,FULL,54th St,Northern Blvd,NW,40.753257000000005,-73.906983
IND,Queens,Parsons Blvd,F,,,,,,,,,,,FALSE,,TRUE,Stair,YES,,FULL,Parsons Blvd,Hillside Av,NW,40.7074675,-73.8036155
IND,Queens,Queens Plaza,E,M,R,,,,,,,,,TRUE,,TRUE,Stair,YES,,NONE,Northern Blvd,41st Ave,NW,40.7491615,-73.93728250000001
IND,Queens,Steinway St,M,R,,,,,,,,,,FALSE,,TRUE,Stair,YES,,NONE,Steinway St,34th Av,SW,40.757431,-73.9202705
IND,Queens,Sutphin Blvd,F,,,,,,,,,,,FALSE,,TRUE,Stair,YES,,FULL,Sutphin Blvd,Hillside Av,SW,40.705425500000004,-73.81071850000001
IND,Queens,Woodhaven Blvd,M,R,,,,,,,,,,FALSE,,TRUE,Stair,YES,,FULL,Woodhaven Blvd,Queens Blvd,SW,40.733298000000005,-73.869794
IND,Rockaway,Aqueduct Racetrack,A,,,,,,,,,,,FALSE,,FALSE,Ramp,YES,,NONE,,,,40.67219,-73.834446
IND,Rockaway,Aqueduct-North Conduit Av,A,,,,,,,,,,,FALSE,,TRUE,Door,YES,,FULL,Cohancy St,North Conduit Av,NE,40.668178499999996,-73.8341005
IND,Rockaway,Beach 105 St,H,,,,,,,,,,,FALSE,,TRUE,Stair,YES,,FULL,Beach 106th St,Rockaway Frwy,SW,40.583311,-73.82731849999999
IND,Rockaway,Beach 90 St,H,,,,,,,,,,,FALSE,,TRUE,Stair,YES,,FULL,Beach 90th St,Rockaway Frwy,NE,40.587947,-73.813936
IND,Rockaway,Beach 98 St,H,,,,,,,,,,,FALSE,,TRUE,Stair,YES,,FULL,Beach 98th St,Rockaway Frwy,SW,40.585374,-73.82042200000001
IND,Rockaway,Broad Channel,A,H,,,,,,,,,,FALSE,,TRUE,Stair,YES,,FULL,West Rd,Noel Rd,NE,40.608007,-73.815967
IND,Rockaway,Howard Beach-JFK Airport,A,,,,,,,,,,,TRUE,,TRUE,Elevator,YES,,FULL,103rd St,159th Av,NE,40.660323,-73.8304435
IND,Rockaway,Rockaway Park-Beach 116 St,H,,,,,,,,,,,TRUE,,TRUE,Door,YES,,FULL,Beach 116th St,Wainwright Ct,NE,40.58051,-73.837418
IRT,7th Ave-Bway,103 St,1,,,,,,,,,,,FALSE,,TRUE,Stair,YES,,FULL,Broadway,103rd St,NW,40.799363,-73.968385
IRT,7th Ave-Bway,116 St-Columbia University,1,,,,,,,,,,,FALSE,,TRUE,Stair,NO,YES,NONE,Broadway,115th St,SE,40.807967500000004,-73.963754
IRT,7th Ave-Bway,125 St,1,,,,,,,,,,,FALSE,,TRUE,Escalator,YES,,FULL,Broadway,125th St,SW,40.8154155,-73.958596
IRT,7th Ave-Bway,137 St-City College,1,,,,,,,,,,,FALSE,,FALSE,Stair,YES,,FULL,Broadway,137th St,SW,40.821466,-73.954132
IRT,7th Ave-Bway,14 St,F,L,M,1,2,3,,,,,,FALSE,,TRUE,Stair,YES,,NONE,7th Ave,12th St,NW,40.737986,-74.00011
IRT,7th Ave-Bway,145 St,1,,,,,,,,,,,FALSE,,FALSE,Stair,YES,,FULL,Broadway,145th St,NE,40.826428,-73.95034100000001
IRT,7th Ave-Bway,157 St,1,,,,,,,,,,,FALSE,,FALSE,Stair,YES,,FULL,Broadway,157th St,NW,40.834050000000005,-73.9449015
IRT,7th Ave-Bway,168 St,A,C,1,,,,,,,,,FALSE,1 not ADA,TRUE,Stair,YES,,NONE,Broadway,168th St,SW,40.840870499999994,-73.9399645
IRT,7th Ave-Bway,18 St,1,,,,,,,,,,,FALSE,,FALSE,Stair,YES,,NONE,7th Ave,18th St,SW,40.7413515,-73.99765099999999
IRT,7th Ave-Bway,181 St,1,,,,,,,,,,,FALSE,,TRUE,Stair,YES,,FULL,Saint Nicholas Ave,181st St,SE,40.8492665,-73.9335875
IRT,7th Ave-Bway,191 St,1,,,,,,,,,,,FALSE,,TRUE,Door,YES,,FULL,Saint Nicholas Ave,191st St,SW,40.8558935,-73.9310705
IRT,7th Ave-Bway,207 St,1,,,,,,,,,,,FALSE,,FALSE,Stair,YES,,FULL,10th Ave,207th St,SW,40.864487499999996,-73.9189515
IRT,7th Ave-Bway,215 St,1,,,,,,,,,,,FALSE,,FALSE,Stair,YES,,FULL,10th Ave,215th St,SW,40.869554,-73.91520449999999
IRT,7th Ave-Bway,23 St,1,,,,,,,,,,,FALSE,,FALSE,Stair,YES,,NONE,7th Ave,23rd St,SW,40.7441115,-73.9956245
IRT,7th Ave-Bway,231 St,1,,,,,,,,,,,TRUE,,FALSE,Stair,YES,,FULL,Broadway,231st St,SW,40.878931,-73.904781
IRT,7th Ave-Bway,238 St,1,,,,,,,,,,,FALSE,,FALSE,Stair,YES,,FULL,Broadway,238th St,SW,40.8850195,-73.900681
IRT,7th Ave-Bway,28 St,1,,,,,,,,,,,FALSE,,FALSE,Stair,NO,YES,NONE,7th Ave,27th St,NW,40.746993,-73.993538
IRT,7th Ave-Bway,34 St-Penn Station,1,2,3,,,,,,,,,TRUE,,TRUE,Easement,YES,,PART,7th Ave,32nd St,W,40.7504215,-73.991022
IRT,7th Ave-Bway,50 St,1,,,,,,,,,,,FALSE,,FALSE,Easement,YES,,NONE,Broadway,50th St,SW,40.761336,-73.9838635
IRT,7th Ave-Bway,59 St-Columbus Circle,A,B,C,D,1,,,,,,,TRUE,In Construction,TRUE,Stair,YES,,NONE,Columbus Circle,59th St,SE,40.7685035,-73.9818175
IRT,7th Ave-Bway,66 St-Lincoln Center,1,,,,,,,,,,,TRUE,,TRUE,Elevator,YES,,FULL,Broadway,66th St,SE,40.773643,-73.982226
IRT,7th Ave-Bway,72 St,1,2,3,,,,,,,,,TRUE,,TRUE,Door,YES,,NONE,Broadway,72nd St,SE,40.7787915,-73.9818845
IRT,7th Ave-Bway,79 St,1,,,,,,,,,,,FALSE,,FALSE,Stair,YES,,FULL,Broadway,79th St,SW,40.783843000000005,-73.979968
IRT,7th Ave-Bway,86 St,1,,,,,,,,,,,FALSE,,FALSE,Stair,YES,,FULL,Broadway,86th St,SW,40.788546499999995,-73.976509
IRT,7th Ave-Bway,96 St,1,2,3,,,,,,,,,TRUE,,TRUE,Stair,YES,,PART,Broadway,96th St,SW,40.793617499999996,-73.9725945
IRT,7th Ave-Bway,Canal St,1,,,,,,,,,,,FALSE,,FALSE,Stair,YES,,NONE,Canal St,Varick St,NW,40.722714499999995,-74.00630699999999
IRT,7th Ave-Bway,Cathedral Pkwy (110 St),1,,,,,,,,,,,FALSE,,FALSE,Stair,YES,,FULL,Broadway,Cathedral Pkwy,NW,40.804158,-73.96660399999999
IRT,7th Ave-Bway,Chambers St,1,2,3,,,,,,,,,TRUE,,TRUE,Stair,YES,,FULL,Chambers St,West Broadway,SW,40.7155425,-74.009242
IRT,7th Ave-Bway,Christopher St-Sheridan Sq,1,,,,,,,,,,,FALSE,,FALSE,Stair,YES,,NONE,7th Ave,Christopher St,SW,40.733526999999995,-74.0029475
IRT,7th Ave-Bway,Dyckman St,1,,,,,,,,,,,FALSE,,TRUE,Stair,YES,,FULL,Hillside Ave,Nagle Ave,SW,40.861185,-73.925094
IRT,7th Ave-Bway,Franklin St,1,,,,,,,,,,,FALSE,,FALSE,Stair,YES,,FULL,West Broadway,Franklin St,SW,40.7194415,-74.00687049999999
IRT,7th Ave-Bway,Houston St,1,,,,,,,,,,,FALSE,,FALSE,Stair,YES,,NONE,Varick St,King St,SW,40.7282125,-74.0053835
IRT,7th Ave-Bway,Marble Hill-225 St,1,,,,,,,,,,,FALSE,,FALSE,Stair,YES,,FULL,Broadway,225th St,NW,40.8743725,-73.910162
IRT,7th Ave-Bway,Rector St,1,,,,,,,,,,,FALSE,,FALSE,Stair,YES,,NONE,Greenwich St,Morris St,NW,40.707342,-74.013882
IRT,7th Ave-Bway,South Ferry,R,1,,,,,,,,,,TRUE,R not ADA,TRUE,Elevator,YES,,FULL,Whitehall St,State St,SW,40.7021395,-74.0136605
IRT,7th Ave-Bway,Times Sq-42 St,A,C,E,N,Q,R,GS,1,2,3,7,TRUE,Shuttle not ADA,TRUE,Stair,YES,,PART,7th Ave,41st St,SE,40.755522,-73.987189
IRT,7th Ave-Bway,Van Cortlandt Park-242 St,1,,,,,,,,,,,FALSE,,TRUE,Stair,YES,,FULL,Broadway,242nd St,NW,40.8899095,-73.89811499999999
IRT,Clark Street,Borough Hall,R,2,3,4,5,,,,,,,TRUE,R not ADA,TRUE,Elevator,YES,,FULL,Court Street,Montague Street,SE,40.6937035,-73.9903745
IRT,Clark Street,Clark St,2,3,,,,,,,,,,FALSE,,TRUE,Door,YES,,FULL,Clark St,Henry St,NW,40.6976195,-73.9931675
IRT,Clark Street,Fulton St,A,C,J,Z,2,3,4,5,,,,FALSE,,TRUE,Easement,YES,,NONE,William St,John St,NE,40.7090525,-74.006569
IRT,Clark Street,Park Place,A,C,E,2,3,,,,,,,FALSE,,TRUE,Stair,YES,,FULL,Park Pl,Broadway,NW,40.712712,-74.007766
IRT,Clark Street,Wall St,2,3,,,,,,,,,,FALSE,,TRUE,Stair,YES,,NONE,William St,Wall St,SW,40.7068515,-74.009218
IRT,Dyre Avenue,Baychester Av,5,,,,,,,,,,,FALSE,,TRUE,Door,YES,,PART,Baychester Av,Tillotson Av,NW,40.8794245,-73.837908
IRT,Dyre Avenue,Eastchester-Dyre Av,5,,,,,,,,,,,FALSE,,TRUE,Door,YES,,PART,Dyre Av,Light St,NE,40.88798,-73.831195
IRT,Dyre Avenue,Gun Hill Rd,5,,,,,,,,,,,FALSE,,TRUE,Door,YES,,PART,Seymour Av,Gun Hill Rd,SE,40.870078,-73.8457965
IRT,Dyre Avenue,Morris Park,5,,,,,,,,,,,FALSE,,TRUE,Door,YES,,PART,Esplanade,Paulding Av,W,40.854544,-73.860248
IRT,Dyre Avenue,Pelham Pkwy,5,,,,,,,,,,,FALSE,,TRUE,Door,YES,,PART,Esplanade,Laconia Av,NE,40.858804,-73.855515
IRT,Eastern Parkway,Atlantic Av,B,D,N,Q,R,2,3,4,5,,,TRUE,,TRUE,Easement,YES,,FULL,Ashland Pl,Hanson Pl,SE,40.684976,-73.97788
IRT,Eastern Parkway,Bergen St,2,3,,,,,,,,,,FALSE,,FALSE,Stair,YES,,NONE,Flatbush Ave,Bergen St,SW,40.680823000000004,-73.97514100000001
IRT,Eastern Parkway,Borough Hall,R,2,3,4,5,,,,,,,TRUE,R not ADA,TRUE,Stair,YES,,NONE,Court St,Joralemon St,SW,40.692443499999996,-73.990646
IRT,Eastern Parkway,Crown Hts-Utica Av,3,4,,,,,,,,,,TRUE,,TRUE,Stair,YES,,FULL,Utica Ave,Eastern Pkwy,SW,40.668901000000005,-73.932957
IRT,Eastern Parkway,Eastern Pkwy-Brooklyn Museum,2,3,,,,,,,,,,FALSE,,TRUE,Stair,YES,,FULL,Washington Ave,Eastern Pkwy,SW,40.671955499999996,-73.96422749999999
IRT,Eastern Parkway,Franklin Av,FS,2,3,4,5,,,,,,,FALSE,,TRUE,Stair,YES,,FULL,Franklin Ave,Eastern Pkwy,SE,40.670629500000004,-73.95783449999999
IRT,Eastern Parkway,Grand Army Plaza,2,3,,,,,,,,,,FALSE,,TRUE,Stair,YES,,FULL,Flatbush Ave,Plaza Street West,NW,40.675118,-73.971019
IRT,Eastern Parkway,Hoyt St,2,3,,,,,,,,,,FALSE,,FALSE,Stair,YES,,FULL,Hoyt St,Fulton St,SW,40.690498500000004,-73.984848
IRT,Eastern Parkway,Kingston Av,3,,,,,,,,,,,FALSE,,TRUE,Stair,YES,,FULL,Kingston Ave,Eastern Pkwy,SW,40.669275,-73.9422055
IRT,Eastern Parkway,Nevins St,2,3,4,5,,,,,,,,FALSE,,FALSE,Stair,YES,,FULL,Flatbush Ave,Livingston St,NW,40.688148,-73.980441
IRT,Eastern Parkway,Nostrand Av,3,,,,,,,,,,,FALSE,,TRUE,Stair,YES,,FULL,Nostrand Ave,Eastern Pkwy,SW,40.669726,-73.9505225
IRT,Flushing,103 St-Corona Plaza,7,,,,,,,,,,,FALSE,,TRUE,Stair,YES,,FULL,103rd St,Roosevelt Av,NE,40.749874,-73.8624675
IRT,Flushing,111 St,7,,,,,,,,,,,FALSE,,TRUE,Stair,YES,,FULL,111th St,Roosevelt Av,NW,40.7515165,-73.8558465
IRT,Flushing,33 St-Rawson St,7,,,,,,,,,,,FALSE,,TRUE,Stair,YES,,NONE,34th St,Queens Blvd,SW,40.744628500000005,-73.93134699999999
IRT,Flushing,40 St-Lowery St,7,,,,,,,,,,,FALSE,,TRUE,Stair,YES,,FULL,40th St,Queens Blvd,SW,40.743810499999995,-73.92426449999999
IRT,Flushing,46 St-Bliss St,7,,,,,,,,,,,FALSE,,TRUE,Stair,YES,,NONE,47th St,Queens Blvd,SW,40.7431135,-73.9183715
IRT,Flushing,5 Av,B,D,F,M,7,,,,,,,FALSE,,TRUE,Stair,YES,,NONE,5th-6th Avs,42nd St,S,40.753811,-73.982057
IRT,Flushing,52 St,7,,,,,,,,,,,FALSE,,TRUE,Stair,YES,,NONE,53rd St,Roosevelt Av,NE,40.7442615,-73.912181
IRT,Flushing,69 St,7,,,,,,,,,,,FALSE,,TRUE,Stair,YES,,FULL,69th St,Roosevelt Av,SW,40.746328500000004,-73.896332
IRT,Flushing,74 St-Broadway,E,F,M,R,7,,,,,,,TRUE,,TRUE,Stair,YES,,NONE,74th St,Roosevelt Av,NE,40.747025,-73.891413
IRT,Flushing,82 St-Jackson Hts,7,,,,,,,,,,,FALSE,,TRUE,Stair,YES,,FULL,82nd St,Roosevelt Av,NW,40.7476325,-73.883952
IRT,Flushing,90 St-Elmhurst Av,7,,,,,,,,,,,FALSE,,TRUE,Stair,YES,,FULL,90th St,Roosevelt Av,NW,40.748453999999995,-73.87651149999999
IRT,Flushing,Court Sq,E,G,M,7,,,,,,,,FALSE,,TRUE,Stair,YES,,FULL,23rd St,45th Rd,NW,40.746218999999996,-73.9455175
IRT,Flushing,Flushing-Main St,7,,,,,,,,,,,TRUE,,TRUE,Stair,YES,,FULL,Main St,Roosevelt Av,NW,40.759726,-73.829411
IRT,Flushing,Grand Central-42 St,GS,4,5,6,7,,,,,,,TRUE,,TRUE,Easement,YES,,NONE,3rd Av,42nd St,SW,40.750851,-73.975078
IRT,Flushing,Hunters Point Av,7,,,,,,,,,,,FALSE,,TRUE,Stair,YES,,FULL,21st St,49th Av,NE,40.7424525,-73.94835950000001
IRT,Flushing,Junction Blvd,7,,,,,,,,,,,TRUE,,TRUE,Stair,YES,,FULL,Junction Blvd,Roosevelt Av,NW,40.749147,-73.86940799999999
IRT,Flushing,Mets-Willets Point,7,,,,,,,,,,,FALSE,,TRUE,Stair,YES,,FULL,126th St,Roosevelt Av,NW,40.754581,-73.845806
IRT,Flushing,Queensboro Plaza,N,Q,7,,,,,,,,,FALSE,,TRUE,Stair,YES,,FULL,Queens Plaza S,27th St,SW,40.7505685,-73.939958
IRT,Flushing,Vernon Blvd-Jackson Av,7,,,,,,,,,,,FALSE,,FALSE,Stair,YES,,NONE,Vernon Blvd,50th Av,SW,40.742577,-73.953367
IRT,Flushing,Woodside-61 St,7,,,,,,,,,,,TRUE,,TRUE,Escalator,YES,,FULL,61st St,Roosevelt Av,SE,40.745624,-73.9031555
IRT,Jerome,138 St-Grand Concourse,4,5,,,,,,,,,,FALSE,,TRUE,Stair,YES,,FULL,Grand Concourse,East 138th S,,40.813227,-73.9298465
IRT,Jerome,149 St-Grand Concourse,2,4,5,,,,,,,,,FALSE,,TRUE,Stair,YES,,NONE,Grand Concourse,149th St,SW,40.818332,-73.92738
IRT,Jerome,161 St-Yankee Stadium,B,D,4,,,,,,,,,TRUE,,TRUE,Stair,YES,,NONE,River Av,161st St,SW,40.827813500000005,-73.92592250000001
IRT,Jerome,167 St,4,,,,,,,,,,,FALSE,,TRUE,Stair,YES,,FULL,River Av,167th St,SW,40.835736499999996,-73.9213105
IRT,Jerome,170 St,4,,,,,,,,,,,FALSE,,TRUE,Stair,YES,,FULL,Jerome Av,170th St,SW,40.839976500000006,-73.917833
IRT,Jerome,176 St,4,,,,,,,,,,,FALSE,,TRUE,Stair,YES,,FULL,Jerome Av,176th St,NW,40.848443,-73.911818
IRT,Jerome,183 St,4,,,,,,,,,,,FALSE,,TRUE,Stair,YES,,FULL,Jerome Av,183rd St,SW,40.858372,-73.9038945
IRT,Jerome,Bedford Pk Blvd-Lehman College,4,,,,,,,,,,,FALSE,,TRUE,Stair,YES,,FULL,Jerome Av,Bedford Park Blvd,SW,40.873528,-73.889754
IRT,Jerome,Burnside Av,4,,,,,,,,,,,FALSE,,TRUE,Stair,YES,,FULL,Jerome Av,Burnside Av,SW,40.8534255,-73.907685
IRT,Jerome,Fordham Rd,4,,,,,,,,,,,TRUE,,TRUE,Stair,YES,,FULL,Jerome Av,Fordham Rd,SW,40.862725999999995,-73.901091
IRT,Jerome,Kingsbridge Rd,4,,,,,,,,,,,FALSE,,TRUE,Stair,YES,,FULL,Jerome Av,Kingsbridge Rd,NW,40.867686000000006,-73.89722850000001
IRT,Jerome,Mosholu Pkwy,4,,,,,,,,,,,FALSE,,TRUE,Stair,YES,,NONE,Jerome Av,Mosholu Pkwy,SW,40.87971,-73.884691
IRT,Jerome,Mt Eden Av,4,,,,,,,,,,,FALSE,,TRUE,Stair,YES,,FULL,Jerome Av,Cross Bronx Expwy,SW,40.844545499999995,-73.914614
IRT,Jerome,Woodlawn,4,,,,,,,,,,,FALSE,,TRUE,Stair,YES,,FULL,Jerome Av,Bainbridge Av,SW,40.886778,-73.878248
IRT,Lenox,116 St,2,3,,,,,,,,,,FALSE,,FALSE,Stair,YES,,FULL,Lenox Av,116th St,SW,40.8020255,-73.94969
IRT,Lenox,125 St,2,3,,,,,,,,,,FALSE,,FALSE,Stair,YES,,FULL,Lenox Av,125th St,SW,40.8077715,-73.9454905
IRT,Lenox,135 St,2,3,,,,,,,,,,TRUE,,FALSE,Stair,YES,,FULL,Lenox Av,135th St,SW,40.814105999999995,-73.9408675
IRT,Lenox,145 St,3,,,,,,,,,,,FALSE,,FALSE,Stair,YES,,FULL,Lenox Av,145th St,SW,40.8204115,-73.9362205
IRT,Lenox,Central Park North (110 St),2,3,,,,,,,,,,FALSE,,TRUE,Stair,YES,,FULL,St Nicholas Av,Central Park N,NW,40.798765,-73.952365
IRT,Lenox,Harlem-148 St,3,,,,,,,,,,,FALSE,,TRUE,Door,YES,,FULL,Adam C Powell Blvd,149th St,NE,40.824069,-73.936981
IRT,Lexington,103 St,6,,,,,,,,,,,FALSE,,TRUE,Stair,YES,,FULL,Lexington Av,103rd St,SW,40.790236,-73.9477525
IRT,Lexington,110 St,6,,,,,,,,,,,FALSE,,FALSE,Stair,YES,,FULL,Lexington Av,110th St,SW,40.7948045,-73.944424
IRT,Lexington,116 St,6,,,,,,,,,,,FALSE,,FALSE,Stair,YES,,FULL,Lexington Av,116th St,SW,40.798627999999994,-73.941644
IRT,Lexington,125 St,4,5,6,,,,,,,,,TRUE,,TRUE,Stair,YES,,FULL,Lexington Av,125th St,SW,40.8043805,-73.937422
IRT,Lexington,14 St-Union Sq,L,N,Q,R,4,5,6,,,,,FALSE,456 not ADA,TRUE,Stair,YES,,NONE,4th Av,14th St,SW,40.7343375,-73.989874
IRT,Lexington,23 St,6,,,,,,,,,,,FALSE,,FALSE,Easement,YES,,NONE,Park Av,22nd St,SW,40.739948,-73.98657
IRT,Lexington,28 St,6,,,,,,,,,,,FALSE,,FALSE,Stair,YES,,NONE,Park Av,28th St,SW,40.743306000000004,-73.9840735
IRT,Lexington,33 St,6,,,,,,,,,,,FALSE,,FALSE,Stair,YES,,NONE,Park Av,32nd St,SW,40.7461085,-73.9820545
IRT,Lexington,51 St,E,M,6,,,,,,,,,TRUE,,TRUE,Easement,YES,,NONE,Lexington Av,50th St,NW,40.756992,-73.97203999999999
IRT,Lexington,59 St,N,Q,R,4,5,6,,,,,,FALSE,,TRUE,Stair,YES,,NONE,Lexington Av,59th St,SW,40.762452499999995,-73.9680165
IRT,Lexington,68 St-Hunter College,6,,,,,,,,,,,FALSE,,TRUE,Stair,YES,,FULL,Lexington Av,68th St,SW,40.767842,-73.96412649999999
IRT,Lexington,77 St,6,,,,,,,,,,,FALSE,,FALSE,Stair,YES,,FULL,Lexington Av,77th St,SW,40.773635999999996,-73.9598565
IRT,Lexington,86 St,4,5,6,,,,,,,,,FALSE,,FALSE,Stair,YES,,FULL,Lexington Av,86th St,SW,40.779501999999994,-73.9556035
IRT,Lexington,96 St,6,,,,,,,,,,,FALSE,,TRUE,Stair,YES,,FULL,Lexington Av,96th St,SW,40.7858475,-73.9509635
IRT,Lexington,Astor Pl,6,,,,,,,,,,,FALSE,,FALSE,Stair,YES,,NONE,Lafayette St,Astor Pl,NW,40.730025999999995,-73.991124
IRT,Lexington,Bleecker St,6,,,,,,,,,,,FALSE,,FALSE,Stair,YES,,NONE,Lafayette St,Bleecker St,SW,40.7258865,-73.9945745
IRT,Lexington,Bowling Green,4,5,,,,,,,,,,TRUE,,TRUE,Door,YES,,NONE,State,Battery Pl,SW,40.70443,-74.014037
IRT,Lexington,Brooklyn Bridge-City Hall,J,Z,4,5,6,,,,,,,TRUE,JZ not ADA,TRUE,Stair,YES,,NONE,Nassau St,Frankfort St,SE,40.712847999999994,-74.0044185
IRT,Lexington,Canal St,J,N,Q,R,Z,6,,,,,,TRUE,NQRZ not ADA,TRUE,Stair,YES,,NONE,Lafayette St,Canal St,SW,40.718571999999995,-74.000689
IRT,Lexington,Fulton St,A,C,J,Z,2,3,4,5,,,,FALSE,,TRUE,Stair,YES,,NONE,Broadway,Cortlandt St,SW,40.710370499999996,-74.0097385
IRT,Lexington,Grand Central-42 St,GS,4,5,6,7,,,,,,,TRUE,,TRUE,Easement,YES,,NONE,Park Av,42nd St,SE,40.751573,-73.97652350000001
IRT,Lexington,Spring St,6,,,,,,,,,,,FALSE,,FALSE,Stair,YES,,NONE,Lafayette St,Spring St,SW,40.722291999999996,-73.9971275
IRT,Lexington,Wall St,4,5,,,,,,,,,,FALSE,,TRUE,Stair,YES,,NONE,Broadway,Rector St,SW,40.707813,-74.0117295
IRT,New Lots,Junius St,3,,,,,,,,,,,FALSE,,TRUE,Stair,YES,,FULL,Powell St,Livonia Ave,SW,40.6633935,-73.9028495
IRT,New Lots,New Lots Av,3,,,,,,,,,,,FALSE,,TRUE,Stair,YES,,FULL,Ashford St,Livonia Av,NW,40.666349,-73.8832915
IRT,New Lots,Pennsylvania Av,3,,,,,,,,,,,FALSE,,TRUE,Stair,YES,,FULL,Pennsylvania Ave,Livonia Ave,SW,40.664722,-73.893948
IRT,New Lots,Rockaway Av,3,,,,,,,,,,,FALSE,,TRUE,Stair,YES,,FULL,Rockaway Ave,Livonia Ave,NW,40.662552000000005,-73.90892099999999
IRT,New Lots,Saratoga Av,3,,,,,,,,,,,FALSE,,TRUE,Stair,YES,,FULL,Saratoga Ave,Livonia Ave,SW,40.661545000000004,-73.915384
IRT,New Lots,Sutter Av-Rutland Rd,3,,,,,,,,,,,FALSE,,TRUE,Stair,YES,,FULL,Rutland Rd,E. 98th St,SW,40.665023500000004,-73.92289199999999
IRT,New Lots,Van Siclen Av,3,,,,,,,,,,,FALSE,,TRUE,Stair,YES,,FULL,Van Siclen Ave,Livonia Ave,NW,40.6655855,-73.8884995
IRT,Nostrand,Beverly Rd,2,5,,,,,,,,,,FALSE,,FALSE,Stair,YES,,NONE,Nostrand Av,Beverly Rd,SW,40.645031,-73.9489485
IRT,Nostrand,Church Av,2,5,,,,,,,,,,TRUE,,FALSE,Stair,YES,,NONE,Nostrand Av,Church Av,NW,40.65080450000001,-73.9496015
IRT,Nostrand,Flatbush Av-Brooklyn College,2,5,,,,,,,,,,TRUE,,TRUE,Stair,YES,,NONE,Nostrand Av,Flatbush Av,NW,40.632571,-73.947652
IRT,Nostrand,Newkirk Av,2,5,,,,,,,,,,FALSE,,FALSE,Stair,YES,,NONE,Nostrand Av,Newkirk Av,SW,40.640313,-73.948431
IRT,Nostrand,President St,2,5,,,,,,,,,,FALSE,,TRUE,Stair,YES,,FULL,Nostrand Av,President St,NW,40.6681555,-73.95066
IRT,Nostrand,Sterling St,2,5,,,,,,,,,,FALSE,,TRUE,Stair,YES,,FULL,Nostrand Av,Sterling St,NW,40.663258,-73.950857
IRT,Nostrand,Winthrop St,2,5,,,,,,,,,,FALSE,,FALSE,Stair,YES,,NONE,Nostrand Av,Parkside Av,SW,40.6566775,-73.95016100000001
IRT,Pelham,3 Av-138 St,6,,,,,,,,,,,FALSE,,TRUE,Stair,YES,,NONE,Lincoln Av,138th St,SE,40.810424999999995,-73.9261585
IRT,Pelham,Brook Av,6,,,,,,,,,,,FALSE,,FALSE,Stair,YES,,NONE,Brook Av,138th St,SW,40.807551000000004,-73.91920250000001
IRT,Pelham,Buhre Av,6,,,,,,,,,,,FALSE,,FALSE,Stair,YES,,FULL,Edison Av,Buhre Av,SW,40.846990000000005,-73.83245149999999
IRT,Pelham,Castle Hill Av,6,,,,,,,,,,,FALSE,,TRUE,Stair,YES,,FULL,Castle Hill Av,Westchester Av,SW,40.834207000000006,-73.8516485
IRT,Pelham,Cypress Av,6,,,,,,,,,,,FALSE,,FALSE,Stair,YES,,NONE,Cypress Av,138th St,SW,40.8051405,-73.91357049999999
IRT,Pelham,E 143 St-St Mary's St,6,,,,,,,,,,,FALSE,,FALSE,Stair,YES,,FULL,Southern Blvd,St Mary's St,SW,40.808185,-73.90784149999999
IRT,Pelham,E 149 St,6,,,,,,,,,,,FALSE,,FALSE,Stair,YES,,NONE,Southern Blvd,149th St,SE,40.812127000000004,-73.903971
IRT,Pelham,Elder Av,6,,,,,,,,,,,FALSE,,TRUE,Stair,YES,,FULL,Elder Av,Westchester Av,SW,40.828574,-73.87919
IRT,Pelham,Hunts Point Av,6,,,,,,,,,,,FALSE,,TRUE,Stair,NO,YES,NONE,Hunts Point Av,163rd St,SW,40.820705000000004,-73.8909805
IRT,Pelham,Longwood Av,6,,,,,,,,,,,FALSE,,FALSE,Stair,YES,,FULL,Southern Blvd,Longwood Av,SW,40.8163285,-73.896215
IRT,Pelham,Middletown Rd,6,,,,,,,,,,,FALSE,,TRUE,Stair,YES,,FULL,Westchester Av,Middletown Rd,NE,40.843772,-73.836432
IRT,Pelham,Morrison Av-Soundview,6,,,,,,,,,,,FALSE,,TRUE,Stair,YES,,FULL,Morrison Av,Westchester Av,NW,40.829506,-73.8746535
IRT,Pelham,Parkchester,6,,,,,,,,,,,FALSE,,TRUE,Stair,YES,,FULL,Metropolitan Av,Westchester Av,NW,40.833225,-73.860888
IRT,Pelham,Pelham Bay Park,6,,,,,,,,,,,TRUE,,TRUE,Door,YES,,FULL,Burr Ave,Westchester Av,NE,40.852709,-73.82657900000001
IRT,Pelham,St Lawrence Av,6,,,,,,,,,,,FALSE,,TRUE,Stair,YES,,FULL,St Lawrence Av,Westchester Av,NE,40.8316155,-73.867244
IRT,Pelham,Westchester Sq-East Tremont Av,6,,,,,,,,,,,FALSE,,TRUE,Stair,YES,,FULL,Westchester Av,Ferris Pl,SW,40.840128,-73.842875
IRT,Pelham,Whitlock Av,6,,,,,,,,,,,FALSE,,TRUE,Stair,YES,,FULL,Whitlock Av,Westchester Av,SW,40.8272965,-73.886169
IRT,Pelham,Zerega Av,6,,,,,,,,,,,FALSE,,TRUE,Stair,YES,,FULL,Westchester Av,Zerega Ave,SE,40.836783499999996,-73.8466895
IRT,Shuttle,Grand Central-42 St,GS,4,5,6,7,,,,,,,TRUE,,TRUE,Easement,YES,,NONE,Vanderbilt Av,42nd St,NW,40.7526355,-73.97892300000001
IRT,White Plains,174 St,2,5,,,,,,,,,,FALSE,,FALSE,Stair,YES,,FULL,Boston Rd,174th St,SW,40.837419999999995,-73.88766749999999
IRT,White Plains,219 St,2,5,,,,,,,,,,FALSE,,TRUE,Stair,YES,,FULL,White Plains Rd,219th St,NW,40.88358100000001,-73.8628065
IRT,White Plains,225 St,2,5,,,,,,,,,,FALSE,,TRUE,Stair,YES,,FULL,White Plains Rd,225th St,SW,40.887816,-73.860555
IRT,White Plains,233 St,2,5,,,,,,,,,,TRUE,,TRUE,Stair,YES,,FULL,White Plains Rd,233rd St,NW,40.893406,-73.85737449999999
IRT,White Plains,3 Av-149 St,2,5,,,,,,,,,,TRUE,,FALSE,Stair,YES,,NONE,Melrose Av,149th St,SW,40.816084000000004,-73.91776
IRT,White Plains,Allerton Av,2,5,,,,,,,,,,FALSE,,TRUE,Stair,YES,,FULL,White Plains Rd,Allerton Av,NW,40.865431,-73.86736099999999
IRT,White Plains,Bronx Park East,2,5,,,,,,,,,,FALSE,,TRUE,Stair,YES,,FULL,Birchall Av,Sagamore St,SE,40.848965500000006,-73.8682975
IRT,White Plains,Burke Av,2,5,,,,,,,,,,FALSE,,TRUE,Stair,YES,,FULL,White Plains Rd,Burke Av,NW,40.871423,-73.867163
IRT,White Plains,E 180 St,2,5,,,,,,,,,,FALSE,,TRUE,Door,YES,,FULL,Morris Park Av,180th St,NW,40.841338,-73.8731955
IRT,White Plains,Freeman St,2,5,,,,,,,,,,FALSE,,FALSE,Stair,YES,,FULL,Southern Blvd,Freeman St,SW,40.830135999999996,-73.891751
IRT,White Plains,Gun Hill Rd,2,5,,,,,,,,,,FALSE,,TRUE,Stair,YES,,FULL,White Plains Rd,211th St,SW,40.877809,-73.866303
IRT,White Plains,Intervale Av,2,5,,,,,,,,,,FALSE,,TRUE,Stair,YES,,FULL,Intervale Av,Westchester Av,NE,40.822271,-73.8966135
IRT,White Plains,Jackson Av,2,5,,,,,,,,,,FALSE,,FALSE,Stair,YES,,NONE,Jackson Av,152nd St,NE,40.816537,-73.9076605
IRT,White Plains,Nereid Av,2,5,,,,,,,,,,FALSE,,TRUE,Stair,YES,,FULL,White Plains Rd,Nereid Av,NW,40.8984715,-73.85430199999999
IRT,White Plains,Pelham Pkwy,2,5,,,,,,,,,,TRUE,,TRUE,Stair,YES,,FULL,White Plains Rd,Pelham Pkwy,SW,40.857189000000005,-73.867626
IRT,White Plains,Prospect Av,2,5,,,,,,,,,,FALSE,,FALSE,Stair,YES,,FULL,Westchester,160th St,SW,40.819627499999996,-73.901657
IRT,White Plains,Simpson St,2,5,,,,,,,,,,TRUE,,FALSE,Elevator,YES,,NONE,Westchester Av,Simpson St,SW,40.824121,-73.8929605
IRT,White Plains,Wakefield-241 St,2,5,,,,,,,,,,FALSE,,TRUE,Stair,YES,,FULL,White Plains Rd,241st St,NW,40.90344,-73.850242
IRT,White Plains,West Farms Sq-E Tremont Av,2,5,,,,,,,,,,FALSE,,TRUE,Stair,YES,,FULL,Boston Rd,E Tremont Av,NW,40.840716,-73.879701
